[
  {
    "id": 1,
    "file": "geo_001.jpg",
    "location": "Eiffel Tower, Paris",
    "country": "France",
    "lat": 48.8584,
    "lng": 2.2945,
    "difficulty": "easy",
    "region": "Europe",
    "wikimedia_search": "Eiffel Tower Paris",
    "notes": "Most recognized structure on Earth. Shoot from Champ de Mars."
  },
  {
    "id": 2,
    "file": "geo_002.jpg",
    "location": "Colosseum, Rome",
    "country": "Italy",
    "lat": 41.8902,
    "lng": 12.4922,
    "difficulty": "easy",
    "region": "Europe",
    "wikimedia_search": "Colosseum Rome exterior",
    "notes": "Exterior shot. Instantly recognizable."
  },
  {
    "id": 3,
    "file": "geo_003.jpg",
    "location": "Big Ben, London",
    "country": "United Kingdom",
    "lat": 51.4994,
    "lng": -0.1248,
    "difficulty": "easy",
    "region": "Europe",
    "wikimedia_search": "Big Ben Westminster London",
    "notes": "Clock tower with Westminster Bridge preferred."
  },
  {
    "id": 4,
    "file": "geo_004.jpg",
    "location": "Sagrada Familia, Barcelona",
    "country": "Spain",
    "lat": 41.4036,
    "lng": 2.1744,
    "difficulty": "easy",
    "region": "Europe",
    "wikimedia_search": "Sagrada Familia exterior Barcelona",
    "notes": "Gaudi facade, unmistakable."
  },
  {
    "id": 5,
    "file": "geo_005.jpg",
    "location": "Santorini Caldera, Oia",
    "country": "Greece",
    "lat": 36.4618,
    "lng": 25.3753,
    "difficulty": "easy",
    "region": "Europe",
    "wikimedia_search": "Oia Santorini white buildings blue domes",
    "notes": "Blue dome churches, white buildings, caldera view."
  },
  {
    "id": 6,
    "file": "geo_006.jpg",
    "location": "Statue of Liberty, New York",
    "country": "USA",
    "lat": 40.6892,
    "lng": -74.0445,
    "difficulty": "easy",
    "region": "North America",
    "wikimedia_search": "Statue of Liberty New York Harbor",
    "notes": "Full statue from water or Liberty Island."
  },
  {
    "id": 7,
    "file": "geo_007.jpg",
    "location": "Times Square, Manhattan",
    "country": "USA",
    "lat": 40.758,
    "lng": -73.9855,
    "difficulty": "easy",
    "region": "North America",
    "wikimedia_search": "Times Square New York night billboards",
    "notes": "Night shot preferred — neon signs make it unmistakable."
  },
  {
    "id": 8,
    "file": "geo_008.jpg",
    "location": "Sydney Opera House",
    "country": "Australia",
    "lat": -33.8568,
    "lng": 151.2153,
    "difficulty": "easy",
    "region": "Oceania",
    "wikimedia_search": "Sydney Opera House Bennelong Point",
    "notes": "Harbor shot. One of the most iconic buildings on Earth."
  },
  {
    "id": 9,
    "file": "geo_009.jpg",
    "location": "Taj Mahal, Agra",
    "country": "India",
    "lat": 27.1751,
    "lng": 78.0421,
    "difficulty": "easy",
    "region": "Asia",
    "wikimedia_search": "Taj Mahal Agra India main gate",
    "notes": "Frontal reflection pool shot."
  },
  {
    "id": 10,
    "file": "geo_010.jpg",
    "location": "Great Wall of China, Mutianyu",
    "country": "China",
    "lat": 40.4319,
    "lng": 116.5704,
    "difficulty": "easy",
    "region": "Asia",
    "wikimedia_search": "Great Wall China Mutianyu section",
    "notes": "Wall snaking over mountain ridgeline."
  },
  {
    "id": 11,
    "file": "geo_011.jpg",
    "location": "Burj Khalifa, Dubai",
    "country": "UAE",
    "lat": 25.1972,
    "lng": 55.2744,
    "difficulty": "easy",
    "region": "Middle East",
    "wikimedia_search": "Burj Khalifa Dubai skyline",
    "notes": "Tallest building in the world. Skyline context helps."
  },
  {
    "id": 12,
    "file": "geo_012.jpg",
    "location": "Machu Picchu",
    "country": "Peru",
    "lat": -13.1631,
    "lng": -72.545,
    "difficulty": "easy",
    "region": "South America",
    "wikimedia_search": "Machu Picchu Inca ruins mountain",
    "notes": "Classic terrace-and-Huayna Picchu-mountain shot."
  },
  {
    "id": 13,
    "file": "geo_013.jpg",
    "location": "Pyramids of Giza",
    "country": "Egypt",
    "lat": 29.9792,
    "lng": 31.1342,
    "difficulty": "easy",
    "region": "Africa",
    "wikimedia_search": "Pyramids Giza desert Egypt",
    "notes": "All three pyramids in frame with desert foreground."
  },
  {
    "id": 14,
    "file": "geo_014.jpg",
    "location": "Christ the Redeemer, Rio de Janeiro",
    "country": "Brazil",
    "lat": -22.9519,
    "lng": -43.2105,
    "difficulty": "easy",
    "region": "South America",
    "wikimedia_search": "Christ Redeemer Rio de Janeiro Corcovado",
    "notes": "Statue on Corcovado with city or clouds behind."
  },
  {
    "id": 15,
    "file": "geo_015.jpg",
    "location": "Angkor Wat, Siem Reap",
    "country": "Cambodia",
    "lat": 13.4125,
    "lng": 103.867,
    "difficulty": "easy",
    "region": "Asia",
    "wikimedia_search": "Angkor Wat temple reflection Cambodia",
    "notes": "Reflection in moat at dawn is the canonical shot."
  },
  {
    "id": 16,
    "file": "geo_016.jpg",
    "location": "Neuschwanstein Castle, Bavaria",
    "country": "Germany",
    "lat": 47.5576,
    "lng": 10.7498,
    "difficulty": "easy",
    "region": "Europe",
    "wikimedia_search": "Neuschwanstein Castle Bavaria autumn",
    "notes": "Fairy-tale castle on cliff. Instantly recognizable."
  },
  {
    "id": 17,
    "file": "geo_017.jpg",
    "location": "Petra, Al-Khazneh Treasury",
    "country": "Jordan",
    "lat": 30.3285,
    "lng": 35.4444,
    "difficulty": "easy",
    "region": "Middle East",
    "wikimedia_search": "Petra Jordan Treasury Al-Khazneh",
    "notes": "Rose-red facade carved into canyon rock."
  },
  {
    "id": 18,
    "file": "geo_018.jpg",
    "location": "Golden Gate Bridge, San Francisco",
    "country": "USA",
    "lat": 37.8199,
    "lng": -122.4783,
    "difficulty": "easy",
    "region": "North America",
    "wikimedia_search": "Golden Gate Bridge San Francisco fog",
    "notes": "Full span from Marin Headlands with fog preferred."
  },
  {
    "id": 19,
    "file": "geo_019.jpg",
    "location": "Hagia Sophia, Istanbul",
    "country": "Turkey",
    "lat": 41.0086,
    "lng": 28.9802,
    "difficulty": "easy",
    "region": "Middle East",
    "wikimedia_search": "Hagia Sophia Istanbul exterior domes",
    "notes": "Grand dome and minarets visible from plaza."
  },
  {
    "id": 20,
    "file": "geo_020.jpg",
    "location": "Mount Fuji, Honshu",
    "country": "Japan",
    "lat": 35.3606,
    "lng": 138.7274,
    "difficulty": "easy",
    "region": "Asia",
    "wikimedia_search": "Mount Fuji Japan snow cap lake reflection",
    "notes": "Lake Kawaguchiko reflection is the iconic framing."
  },
  {
    "id": 21,
    "file": "geo_021.jpg",
    "location": "Dubrovnik Old Town, Adriatic Coast",
    "country": "Croatia",
    "lat": 42.6507,
    "lng": 18.0944,
    "difficulty": "medium",
    "region": "Europe",
    "wikimedia_search": "Dubrovnik old town walls aerial Croatia",
    "notes": "Orange rooftops, city walls, blue Adriatic. Known but needs thought."
  },
  {
    "id": 22,
    "file": "geo_022.jpg",
    "location": "Edinburgh Castle",
    "country": "United Kingdom",
    "lat": 55.9486,
    "lng": -3.2001,
    "difficulty": "medium",
    "region": "Europe",
    "wikimedia_search": "Edinburgh Castle rock Scotland",
    "notes": "Castle on volcanic plug. Recognizable but not as immediate as Big Ben."
  },
  {
    "id": 23,
    "file": "geo_023.jpg",
    "location": "Hallstatt Village, Austrian Alps",
    "country": "Austria",
    "lat": 47.5622,
    "lng": 13.6493,
    "difficulty": "medium",
    "region": "Europe",
    "wikimedia_search": "Hallstatt village lake Austria Alps",
    "notes": "Alpine village on lakeshore — famous but not instantly placed."
  },
  {
    "id": 24,
    "file": "geo_024.jpg",
    "location": "Amalfi Coast Road, Campania",
    "country": "Italy",
    "lat": 40.634,
    "lng": 14.6027,
    "difficulty": "medium",
    "region": "Europe",
    "wikimedia_search": "Amalfi Coast road cliffs Italy Mediterranean",
    "notes": "Cliff road, colourful towns, blue sea. Distinct but region is guessable."
  },
  {
    "id": 25,
    "file": "geo_025.jpg",
    "location": "Ha Long Bay, Gulf of Tonkin",
    "country": "Vietnam",
    "lat": 20.9101,
    "lng": 107.1839,
    "difficulty": "medium",
    "region": "Asia",
    "wikimedia_search": "Ha Long Bay karst islands Vietnam",
    "notes": "Limestone karst pillars rising from sea. Southeast Asia feel."
  },
  {
    "id": 26,
    "file": "geo_026.jpg",
    "location": "Cappadocia Hot Air Balloons",
    "country": "Turkey",
    "lat": 38.6431,
    "lng": 34.8289,
    "difficulty": "medium",
    "region": "Middle East",
    "wikimedia_search": "Cappadocia hot air balloons fairy chimneys Turkey",
    "notes": "Tuff formations and balloons. Distinctive but not city-pinned."
  },
  {
    "id": 27,
    "file": "geo_027.jpg",
    "location": "Banff, Canadian Rockies",
    "country": "Canada",
    "lat": 51.4968,
    "lng": -115.9281,
    "difficulty": "medium",
    "region": "North America",
    "wikimedia_search": "Banff Lake Louise turquoise Canada Rockies",
    "notes": "Turquoise glacial lake, jagged peaks. North America but where exactly?"
  },
  {
    "id": 28,
    "file": "geo_028.jpg",
    "location": "Cape Town, Table Mountain",
    "country": "South Africa",
    "lat": -33.9249,
    "lng": 18.4241,
    "difficulty": "medium",
    "region": "Africa",
    "wikimedia_search": "Table Mountain Cape Town aerial",
    "notes": "Flat-topped mountain over city. Distinctive once you know it."
  },
  {
    "id": 29,
    "file": "geo_029.jpg",
    "location": "Tokyo Shibuya Crossing",
    "country": "Japan",
    "lat": 35.6595,
    "lng": 139.7004,
    "difficulty": "medium",
    "region": "Asia",
    "wikimedia_search": "Shibuya crossing Tokyo pedestrian scramble",
    "notes": "World's busiest pedestrian crossing. Japan is guessable; exact city harder."
  },
  {
    "id": 30,
    "file": "geo_030.jpg",
    "location": "Havana Old Town, Malecon",
    "country": "Cuba",
    "lat": 23.1352,
    "lng": -82.3589,
    "difficulty": "medium",
    "region": "North America",
    "wikimedia_search": "Havana Malecon Cuba classic cars street",
    "notes": "Pastel colonial buildings and old American cars. Very distinct feel."
  },
  {
    "id": 31,
    "file": "geo_031.jpg",
    "location": "Sossusvlei Red Dunes, Namib Desert",
    "country": "Namibia",
    "lat": -24.7284,
    "lng": 15.3437,
    "difficulty": "medium",
    "region": "Africa",
    "wikimedia_search": "Sossusvlei Namib Desert red dunes Namibia",
    "notes": "Tallest sand dunes on Earth. Africa but sub-region is a genuine guess."
  },
  {
    "id": 32,
    "file": "geo_032.jpg",
    "location": "Queenstown, Lake Wakatipu",
    "country": "New Zealand",
    "lat": -45.0312,
    "lng": 168.6626,
    "difficulty": "medium",
    "region": "Oceania",
    "wikimedia_search": "Queenstown Lake Wakatipu New Zealand mountains",
    "notes": "Alpine lake town. Southern Hemisphere feel but NZ vs. South America hard."
  },
  {
    "id": 33,
    "file": "geo_033.jpg",
    "location": "Marrakech Djemaa el-Fna Square",
    "country": "Morocco",
    "lat": 31.6258,
    "lng": -7.9891,
    "difficulty": "medium",
    "region": "Africa",
    "wikimedia_search": "Djemaa el-Fna Marrakech square Morocco",
    "notes": "Busy medina square. North Africa but Morocco vs. Tunisia is a real debate."
  },
  {
    "id": 34,
    "file": "geo_034.jpg",
    "location": "Bagan Temples, Mandalay Region",
    "country": "Myanmar",
    "lat": 21.1717,
    "lng": 94.8585,
    "difficulty": "medium",
    "region": "Asia",
    "wikimedia_search": "Bagan temples plains Myanmar sunrise",
    "notes": "Thousands of Buddhist temples on flat plain. Asia certain; exact country harder."
  },
  {
    "id": 35,
    "file": "geo_035.jpg",
    "location": "Buenos Aires La Boca Caminito",
    "country": "Argentina",
    "lat": -34.6345,
    "lng": -58.3631,
    "difficulty": "medium",
    "region": "South America",
    "wikimedia_search": "La Boca Caminito Buenos Aires colorful houses",
    "notes": "Brightly painted corrugated-iron houses. South America; city needs thought."
  },
  {
    "id": 36,
    "file": "geo_036.jpg",
    "location": "Zhangjiajie Avatar Mountains",
    "country": "China",
    "lat": 29.317,
    "lng": 110.4352,
    "difficulty": "medium",
    "region": "Asia",
    "wikimedia_search": "Zhangjiajie pillar mountains forest China",
    "notes": "Sandstone pillars in mist. Iconic but not universally placed."
  },
  {
    "id": 37,
    "file": "geo_037.jpg",
    "location": "Faroe Islands Sea Cliffs, Vestmanna",
    "country": "Faroe Islands",
    "lat": 62.1561,
    "lng": -7.1675,
    "difficulty": "hard",
    "region": "Europe",
    "wikimedia_search": "Faroe Islands sea cliffs green grass Atlantic",
    "notes": "Green turf cliffs into Atlantic. Could be Ireland, Iceland, Faroe — wide open."
  },
  {
    "id": 38,
    "file": "geo_038.jpg",
    "location": "Svalbard, Longyearbyen",
    "country": "Norway",
    "lat": 78.2232,
    "lng": 15.6469,
    "difficulty": "hard",
    "region": "Europe",
    "wikimedia_search": "Longyearbyen Svalbard colourful houses arctic",
    "notes": "Tiny Arctic mining town. Very few know it on sight."
  },
  {
    "id": 39,
    "file": "geo_039.jpg",
    "location": "Altai Mountains, Katu-Yaryk Pass",
    "country": "Russia",
    "lat": 51.3752,
    "lng": 87.7389,
    "difficulty": "hard",
    "region": "Asia",
    "wikimedia_search": "Altai mountains Russia steppe river valley",
    "notes": "River valley between bare steppe mountains. Could be anywhere in Central Asia."
  },
  {
    "id": 40,
    "file": "geo_040.jpg",
    "location": "Tassili n'Ajjer Plateau",
    "country": "Algeria",
    "lat": 25.3374,
    "lng": 8.5786,
    "difficulty": "hard",
    "region": "Africa",
    "wikimedia_search": "Tassili n'Ajjer Algeria rock formations Sahara",
    "notes": "Sandstone rock forest in Sahara. Few will place this."
  },
  {
    "id": 41,
    "file": "geo_041.jpg",
    "location": "Tongariro Alpine Crossing",
    "country": "New Zealand",
    "lat": -39.1327,
    "lng": 175.642,
    "difficulty": "hard",
    "region": "Oceania",
    "wikimedia_search": "Tongariro crossing volcanic crater lake New Zealand",
    "notes": "Volcanic crater landscape. Could be Iceland, Kamchatka, NZ — hard call."
  },
  {
    "id": 42,
    "file": "geo_042.jpg",
    "location": "Socotra Island, Dragon Blood Trees",
    "country": "Yemen",
    "lat": 12.4634,
    "lng": 53.8237,
    "difficulty": "hard",
    "region": "Middle East",
    "wikimedia_search": "Socotra Dragon Blood Tree Yemen island",
    "notes": "Alien-looking umbrella trees. Unique enough that experts still debate Yemen vs. Oman."
  },
  {
    "id": 43,
    "file": "geo_043.jpg",
    "location": "Registan Square, Samarkand",
    "country": "Uzbekistan",
    "lat": 39.6547,
    "lng": 66.9758,
    "difficulty": "hard",
    "region": "Asia",
    "wikimedia_search": "Registan Samarkand Uzbekistan madrasah",
    "notes": "Three turquoise-tiled madrasahs around a central square. Silk Road jewel."
  },
  {
    "id": 44,
    "file": "geo_044.jpg",
    "location": "Danakil Depression, Dallol",
    "country": "Ethiopia",
    "lat": 14.2417,
    "lng": 40.3,
    "difficulty": "hard",
    "region": "Africa",
    "wikimedia_search": "Dallol hydrothermal field Ethiopia Danakil colorful",
    "notes": "Neon-yellow sulfur pools. Almost no one gets this on first try."
  },
  {
    "id": 45,
    "file": "geo_045.jpg",
    "location": "Kerguelen Islands, Southern Ocean",
    "country": "France (Southern Territories)",
    "lat": -49.3501,
    "lng": 70.2167,
    "difficulty": "hard",
    "region": "Oceania",
    "wikimedia_search": "Kerguelen Islands desolate coastline sub-Antarctic",
    "notes": "One of the most remote inhabited places on Earth. Almost a guaranteed stump."
  },
  {
    "id": 46,
    "file": "geo_046.jpg",
    "location": "Zhongdian (Shangri-La), Yunnan",
    "country": "China",
    "lat": 27.83,
    "lng": 99.708,
    "difficulty": "hard",
    "region": "Asia",
    "wikimedia_search": "Shangri-La Yunnan Tibetan plateau grassland China",
    "notes": "Tibetan plateau village — looks like Tibet but is technically Yunnan."
  },
  {
    "id": 47,
    "file": "geo_047.jpg",
    "location": "Salar de Uyuni, Reflections",
    "country": "Bolivia",
    "lat": -20.1338,
    "lng": -67.4891,
    "difficulty": "hard",
    "region": "South America",
    "wikimedia_search": "Salar de Uyuni salt flat Bolivia sky reflection",
    "notes": "World's largest salt flat. Sky-mirror effect. South America but which country?"
  },
  {
    "id": 48,
    "file": "geo_048.jpg",
    "location": "Turkmenistan, Door to Hell (Darvaza Gas Crater)",
    "country": "Turkmenistan",
    "lat": 40.2528,
    "lng": 58.4397,
    "difficulty": "hard",
    "region": "Asia",
    "wikimedia_search": "Darvaza gas crater Turkmenistan burning",
    "notes": "Flaming crater in desert at night. Extremely distinctive; almost no one knows Turkmenistan."
  },
  {
    "id": 49,
    "file": "geo_049.jpg",
    "location": "Listvyanka, Lake Baikal",
    "country": "Russia",
    "lat": 51.8669,
    "lng": 104.8669,
    "difficulty": "hard",
    "region": "Asia",
    "wikimedia_search": "Lake Baikal Olkhon ice winter Siberia",
    "notes": "Crystal-clear blue ice on the world's deepest lake. Frozen Siberia."
  },
  {
    "id": 50,
    "file": "geo_050.jpg",
    "location": "Bioluminescent Bay, Vieques",
    "country": "Puerto Rico (USA)",
    "lat": 18.0952,
    "lng": -65.44,
    "difficulty": "hard",
    "region": "North America",
    "wikimedia_search": "Mosquito Bay Vieques bioluminescence Puerto Rico",
    "notes": "Glowing blue water at night. Visually unforgettable; almost no one places it correctly."
  },
  {
    "id": 51,
    "file": "geo_051.jpg",
    "location": "Plitvice Lakes, Karst Waterfalls",
    "country": "Croatia",
    "lat": 44.8654,
    "lng": 15.582,
    "difficulty": "medium",
    "region": "Europe",
    "wikimedia_search": "Plitvice Lakes Croatia turquoise waterfalls",
    "notes": "Turquoise cascading lakes. Stunning but location is a genuine challenge."
  },
  {
    "id": 52,
    "file": "geo_052.jpg",
    "location": "Jökulsárlón Glacier Lagoon",
    "country": "Iceland",
    "lat": 64.0784,
    "lng": -16.2306,
    "difficulty": "hard",
    "region": "Europe",
    "wikimedia_search": "Jökulsárlón glacier lagoon Iceland icebergs",
    "notes": "Blue icebergs floating in lagoon. Iceland vs. Greenland vs. Antarctica is the debate."
  },
  {
    "id": 53,
    "file": "geo_053.jpg",
    "location": "Masai Mara Savanna",
    "country": "Kenya",
    "lat": -1.5021,
    "lng": 35.1478,
    "difficulty": "medium",
    "region": "Africa",
    "wikimedia_search": "Masai Mara savanna wildebeest Kenya",
    "notes": "Classic African savanna with acacia trees. Africa is clear; exact country less so."
  },
  {
    "id": 54,
    "file": "geo_054.jpg",
    "location": "Palawan, El Nido Limestone Cliffs",
    "country": "Philippines",
    "lat": 11.1784,
    "lng": 119.4071,
    "difficulty": "medium",
    "region": "Asia",
    "wikimedia_search": "El Nido Palawan Philippines limestone cliffs lagoon",
    "notes": "Karst islands and turquoise lagoon. Southeast Asia certain; Philippines vs. Thailand hard."
  },
  {
    "id": 55,
    "file": "geo_055.jpg",
    "location": "Antelope Canyon, Arizona",
    "country": "USA",
    "lat": 36.8619,
    "lng": -111.3743,
    "difficulty": "medium",
    "region": "North America",
    "wikimedia_search": "Antelope Canyon slot canyon Arizona light beams",
    "notes": "Swirling red sandstone slot canyon. Iconic photo but many don't know where it is."
  },
  {
    "id": 56,
    "file": "geo_056.jpg",
    "location": "Lofoten Islands, Fishing Villages",
    "country": "Norway",
    "lat": 68.1535,
    "lng": 13.9974,
    "difficulty": "hard",
    "region": "Europe",
    "wikimedia_search": "Lofoten Islands Norway red fishing huts rorbuer",
    "notes": "Red wooden huts on stilts over fjord. Norway vs. Iceland — real debate."
  },
  {
    "id": 57,
    "file": "geo_057.jpg",
    "location": "Petra Siq Canyon Approach",
    "country": "Jordan",
    "lat": 30.3289,
    "lng": 35.4433,
    "difficulty": "medium",
    "region": "Middle East",
    "wikimedia_search": "Petra Siq narrow canyon Jordan",
    "notes": "Narrow sandstone canyon leading to Treasury — different angle from id:17."
  },
  {
    "id": 58,
    "file": "geo_058.jpg",
    "location": "Amazon River Basin, Manaus",
    "country": "Brazil",
    "lat": -3.119,
    "lng": -60.0217,
    "difficulty": "medium",
    "region": "South America",
    "wikimedia_search": "Amazon river Brazil rainforest aerial",
    "notes": "Vast green rainforest with river meanders. South America sure; country hard."
  },
  {
    "id": 59,
    "file": "geo_059.jpg",
    "location": "Wadi Rum Desert",
    "country": "Jordan",
    "lat": 29.5757,
    "lng": 35.4225,
    "difficulty": "hard",
    "region": "Middle East",
    "wikimedia_search": "Wadi Rum desert Jordan red sandstone valley",
    "notes": "Red sandstone desert. Middle East feel but Jordan vs. Saudi vs. Oman is wide open."
  },
  {
    "id": 60,
    "file": "geo_060.jpg",
    "location": "Zhangye Danxia Landform, Rainbow Mountains",
    "country": "China",
    "lat": 38.9357,
    "lng": 100.0885,
    "difficulty": "hard",
    "region": "Asia",
    "wikimedia_search": "Zhangye Danxia rainbow mountains China colorful",
    "notes": "Multicolored layered rock formations. Visually unique; almost no one places it without a hint."
  },
  {
    "id": 61,
    "file": "geo_061.jpg",
    "location": "Brandenburg Gate, Berlin",
    "country": "Germany",
    "lat": 52.5163,
    "lng": 13.3777,
    "difficulty": "easy",
    "region": "Europe",
    "wikimedia_search": "Brandenburg Gate Berlin",
    "notes": "Iconic Neoclassical gate, instantly readable."
  },
  {
    "id": 62,
    "file": "geo_062.jpg",
    "location": "Stonehenge",
    "country": "United Kingdom",
    "lat": 51.1789,
    "lng": -1.8262,
    "difficulty": "easy",
    "region": "Europe",
    "wikimedia_search": "Stonehenge Salisbury Plain",
    "notes": "Prehistoric stone circle, unmistakable from any angle."
  },
  {
    "id": 63,
    "file": "geo_063.jpg",
    "location": "Tower Bridge, London",
    "country": "United Kingdom",
    "lat": 51.5055,
    "lng": -0.0754,
    "difficulty": "easy",
    "region": "Europe",
    "wikimedia_search": "Tower Bridge London Thames",
    "notes": "Often confused with London Bridge; the bascule bridge with two towers."
  },
  {
    "id": 64,
    "file": "geo_064.jpg",
    "location": "Acropolis & Parthenon, Athens",
    "country": "Greece",
    "lat": 37.9715,
    "lng": 23.7267,
    "difficulty": "easy",
    "region": "Europe",
    "wikimedia_search": "Parthenon Acropolis Athens",
    "notes": "Marble temple on a limestone hill — birthplace of democracy."
  },
  {
    "id": 65,
    "file": "geo_065.jpg",
    "location": "St. Basil's Cathedral, Moscow",
    "country": "Russia",
    "lat": 55.7525,
    "lng": 37.6231,
    "difficulty": "easy",
    "region": "Europe",
    "wikimedia_search": "Saint Basil Cathedral Red Square Moscow",
    "notes": "Onion domes on Red Square — the candy-colored one."
  },
  {
    "id": 66,
    "file": "geo_066.jpg",
    "location": "Schönbrunn Palace, Vienna",
    "country": "Austria",
    "lat": 48.1849,
    "lng": 16.3122,
    "difficulty": "medium",
    "region": "Europe",
    "wikimedia_search": "Schonbrunn Palace Vienna front facade",
    "notes": "Habsburg yellow-orange palace, formal gardens out front."
  },
  {
    "id": 67,
    "file": "geo_067.jpg",
    "location": "Charles Bridge, Prague",
    "country": "Czech Republic",
    "lat": 50.0865,
    "lng": 14.4114,
    "difficulty": "medium",
    "region": "Europe",
    "wikimedia_search": "Charles Bridge Prague pedestrian statues",
    "notes": "Stone bridge with statues; Vltava river underneath."
  },
  {
    "id": 68,
    "file": "geo_068.jpg",
    "location": "Mont Saint-Michel, Normandy",
    "country": "France",
    "lat": 48.6361,
    "lng": -1.5115,
    "difficulty": "medium",
    "region": "Europe",
    "wikimedia_search": "Mont Saint-Michel abbey tidal island Normandy",
    "notes": "Tidal-island abbey rising out of sand flats — distinctive silhouette."
  },
  {
    "id": 69,
    "file": "geo_069.jpg",
    "location": "Geirangerfjord",
    "country": "Norway",
    "lat": 62.101,
    "lng": 7.0991,
    "difficulty": "medium",
    "region": "Europe",
    "wikimedia_search": "Geirangerfjord Norway cruise fjord cliffs",
    "notes": "Steep-walled fjord, often photographed from cliff viewpoints."
  },
  {
    "id": 70,
    "file": "geo_070.jpg",
    "location": "Cliffs of Moher",
    "country": "Ireland",
    "lat": 52.9715,
    "lng": -9.4262,
    "difficulty": "medium",
    "region": "Europe",
    "wikimedia_search": "Cliffs of Moher Ireland Atlantic",
    "notes": "200m sea cliffs on Ireland's west coast — green grass meets vertical drop."
  },
  {
    "id": 71,
    "file": "geo_071.jpg",
    "location": "Pena Palace, Sintra",
    "country": "Portugal",
    "lat": 38.7876,
    "lng": -9.3905,
    "difficulty": "medium",
    "region": "Europe",
    "wikimedia_search": "Pena Palace Sintra Portugal",
    "notes": "Vivid yellow + red Romanticist palace on a forested hill."
  },
  {
    "id": 72,
    "file": "geo_072.jpg",
    "location": "Meteora Monasteries",
    "country": "Greece",
    "lat": 39.7217,
    "lng": 21.6306,
    "difficulty": "hard",
    "region": "Europe",
    "wikimedia_search": "Meteora monasteries rock pillars Greece",
    "notes": "Monasteries perched on tall sandstone columns. Greece, but harder than Athens."
  },
  {
    "id": 73,
    "file": "geo_073.jpg",
    "location": "Hallgrímskirkja, Reykjavík",
    "country": "Iceland",
    "lat": 64.1418,
    "lng": -21.9266,
    "difficulty": "hard",
    "region": "Europe",
    "wikimedia_search": "Hallgrimskirkja Reykjavik Iceland church",
    "notes": "Concrete church with basalt-column-inspired facade."
  },
  {
    "id": 74,
    "file": "geo_074.jpg",
    "location": "Lofoten Reine fishing village",
    "country": "Norway",
    "lat": 67.9319,
    "lng": 13.0875,
    "difficulty": "hard",
    "region": "Europe",
    "wikimedia_search": "Reine Lofoten Norway red rorbu",
    "notes": "Red wooden huts under sharp peaks — Norway/Iceland is the typical confusion."
  },
  {
    "id": 75,
    "file": "geo_075.jpg",
    "location": "Eilean Donan Castle",
    "country": "United Kingdom",
    "lat": 57.274,
    "lng": -5.5163,
    "difficulty": "hard",
    "region": "Europe",
    "wikimedia_search": "Eilean Donan castle Scotland Highlands loch",
    "notes": "Castle on a tidal islet at meeting of three sea lochs. Scottish Highlands."
  },
  {
    "id": 76,
    "file": "geo_076.jpg",
    "location": "Mount Rushmore",
    "country": "USA",
    "lat": 43.8791,
    "lng": -103.4591,
    "difficulty": "easy",
    "region": "North America",
    "wikimedia_search": "Mount Rushmore South Dakota presidents",
    "notes": "Four presidents carved in granite, immediately American."
  },
  {
    "id": 77,
    "file": "geo_077.jpg",
    "location": "Hollywood Sign, Los Angeles",
    "country": "USA",
    "lat": 34.1341,
    "lng": -118.3215,
    "difficulty": "easy",
    "region": "North America",
    "wikimedia_search": "Hollywood sign Los Angeles hills",
    "notes": "White letters on the hillside — universal LA shorthand."
  },
  {
    "id": 78,
    "file": "geo_078.jpg",
    "location": "Space Needle, Seattle",
    "country": "USA",
    "lat": 47.6205,
    "lng": -122.3493,
    "difficulty": "easy",
    "region": "North America",
    "wikimedia_search": "Space Needle Seattle skyline",
    "notes": "Saucer-on-a-pedestal tower."
  },
  {
    "id": 79,
    "file": "geo_079.jpg",
    "location": "Gateway Arch, St. Louis",
    "country": "USA",
    "lat": 38.6247,
    "lng": -90.1848,
    "difficulty": "easy",
    "region": "North America",
    "wikimedia_search": "Gateway Arch St Louis Missouri stainless",
    "notes": "Stainless-steel parabolic arch over the Mississippi."
  },
  {
    "id": 80,
    "file": "geo_080.jpg",
    "location": "CN Tower, Toronto",
    "country": "Canada",
    "lat": 43.6426,
    "lng": -79.3871,
    "difficulty": "easy",
    "region": "North America",
    "wikimedia_search": "CN Tower Toronto skyline",
    "notes": "Tapered concrete tower with disk pod, dominates Toronto skyline."
  },
  {
    "id": 81,
    "file": "geo_081.jpg",
    "location": "Niagara Falls",
    "country": "Canada / USA",
    "lat": 43.0962,
    "lng": -79.0377,
    "difficulty": "easy",
    "region": "North America",
    "wikimedia_search": "Niagara Falls Horseshoe Canadian side",
    "notes": "Horseshoe Falls — giant curved waterfall on US/Canada border."
  },
  {
    "id": 82,
    "file": "geo_082.jpg",
    "location": "Hoover Dam",
    "country": "USA",
    "lat": 36.0161,
    "lng": -114.7377,
    "difficulty": "medium",
    "region": "North America",
    "wikimedia_search": "Hoover Dam Nevada Arizona concrete arch",
    "notes": "Concrete arch dam between Nevada and Arizona."
  },
  {
    "id": 83,
    "file": "geo_083.jpg",
    "location": "Quebec City Old Town",
    "country": "Canada",
    "lat": 46.8139,
    "lng": -71.208,
    "difficulty": "medium",
    "region": "North America",
    "wikimedia_search": "Old Quebec City Chateau Frontenac historic",
    "notes": "Château Frontenac on the cliff above the St. Lawrence."
  },
  {
    "id": 84,
    "file": "geo_084.jpg",
    "location": "Mesa Verde Cliff Dwellings",
    "country": "USA",
    "lat": 37.1839,
    "lng": -108.4889,
    "difficulty": "hard",
    "region": "North America",
    "wikimedia_search": "Mesa Verde cliff palace Pueblo dwellings",
    "notes": "Ancestral Pueblo cliff dwellings tucked into red rock alcove."
  },
  {
    "id": 85,
    "file": "geo_085.jpg",
    "location": "Forbidden City, Beijing",
    "country": "China",
    "lat": 39.9163,
    "lng": 116.3972,
    "difficulty": "easy",
    "region": "Asia",
    "wikimedia_search": "Forbidden City Beijing aerial palace",
    "notes": "Imperial palace complex — yellow tile roofs, vermillion walls."
  },
  {
    "id": 86,
    "file": "geo_086.jpg",
    "location": "Tokyo Tower",
    "country": "Japan",
    "lat": 35.6586,
    "lng": 139.7454,
    "difficulty": "easy",
    "region": "Asia",
    "wikimedia_search": "Tokyo Tower red white skyline",
    "notes": "Eiffel-style red and white lattice tower in central Tokyo."
  },
  {
    "id": 87,
    "file": "geo_087.jpg",
    "location": "Marina Bay Sands, Singapore",
    "country": "Singapore",
    "lat": 1.2834,
    "lng": 103.8607,
    "difficulty": "easy",
    "region": "Asia",
    "wikimedia_search": "Marina Bay Sands Singapore skyline boat",
    "notes": "Three-tower hotel with the boat-shaped SkyPark on top."
  },
  {
    "id": 89,
    "file": "geo_089.jpg",
    "location": "Wat Arun, Bangkok",
    "country": "Thailand",
    "lat": 13.7437,
    "lng": 100.4889,
    "difficulty": "medium",
    "region": "Asia",
    "wikimedia_search": "Wat Arun temple Bangkok Chao Phraya river",
    "notes": "Spired Buddhist temple covered in porcelain tile, on the Chao Phraya river."
  },
  {
    "id": 90,
    "file": "geo_090.jpg",
    "location": "Borobudur Temple",
    "country": "Indonesia",
    "lat": -7.6079,
    "lng": 110.2038,
    "difficulty": "medium",
    "region": "Asia",
    "wikimedia_search": "Borobudur stupa Java sunrise",
    "notes": "World's largest Buddhist temple — terraced stupa-pyramid in Java."
  },
  {
    "id": 91,
    "file": "geo_091.jpg",
    "location": "Tiger's Nest Monastery, Paro",
    "country": "Bhutan",
    "lat": 27.4924,
    "lng": 89.3625,
    "difficulty": "medium",
    "region": "Asia",
    "wikimedia_search": "Tigers Nest Paro Taktsang Bhutan cliff",
    "notes": "Monastery clinging to a sheer Himalayan cliff."
  },
  {
    "id": 92,
    "file": "geo_092.jpg",
    "location": "Pangong Tso, Ladakh",
    "country": "India",
    "lat": 33.7548,
    "lng": 78.65,
    "difficulty": "hard",
    "region": "Asia",
    "wikimedia_search": "Pangong Lake Ladakh Himalayan blue",
    "notes": "Saline lake at 4,200m straddling India/China border."
  },
  {
    "id": 93,
    "file": "geo_093.jpg",
    "location": "Naoshima Yellow Pumpkin",
    "country": "Japan",
    "lat": 34.4452,
    "lng": 133.9952,
    "difficulty": "hard",
    "region": "Asia",
    "wikimedia_search": "Naoshima yellow pumpkin Yayoi Kusama pier",
    "notes": "Yellow polka-dot pumpkin on a small pier in the Seto Inland Sea."
  },
  {
    "id": 94,
    "file": "geo_094.jpg",
    "location": "Komodo National Park",
    "country": "Indonesia",
    "lat": -8.5512,
    "lng": 119.4844,
    "difficulty": "hard",
    "region": "Asia",
    "wikimedia_search": "Komodo Padar island viewpoint Indonesia",
    "notes": "Three-bay viewpoint from Padar Island. Looks Pacific but is Indonesian."
  },
  {
    "id": 95,
    "file": "geo_095.jpg",
    "location": "Hue Imperial City",
    "country": "Vietnam",
    "lat": 16.4694,
    "lng": 107.5797,
    "difficulty": "hard",
    "region": "Asia",
    "wikimedia_search": "Hue Citadel Vietnam Imperial walls gate",
    "notes": "Walled imperial citadel along the Perfume River."
  },
  {
    "id": 96,
    "file": "geo_096.jpg",
    "location": "Iguazu Falls",
    "country": "Argentina / Brazil",
    "lat": -25.6953,
    "lng": -54.4367,
    "difficulty": "easy",
    "region": "South America",
    "wikimedia_search": "Iguazu Falls Devil Throat Argentina Brazil",
    "notes": "275-cataract waterfall complex on Argentina-Brazil border."
  },
  {
    "id": 97,
    "file": "geo_097.jpg",
    "location": "Torres del Paine, Patagonia",
    "country": "Chile",
    "lat": -50.9423,
    "lng": -73.4068,
    "difficulty": "medium",
    "region": "South America",
    "wikimedia_search": "Torres del Paine Patagonia three towers",
    "notes": "Three granite spires above turquoise glacial lakes."
  },
  {
    "id": 98,
    "file": "geo_098.jpg",
    "location": "Cotopaxi Volcano",
    "country": "Ecuador",
    "lat": -0.6804,
    "lng": -78.4378,
    "difficulty": "hard",
    "region": "South America",
    "wikimedia_search": "Cotopaxi volcano Ecuador snow cone",
    "notes": "Symmetrical snow-capped volcanic cone, equatorial Andes."
  },
  {
    "id": 99,
    "file": "geo_099.jpg",
    "location": "Valle de la Luna, Atacama",
    "country": "Chile",
    "lat": -22.9217,
    "lng": -68.2716,
    "difficulty": "hard",
    "region": "South America",
    "wikimedia_search": "Valle de la Luna Atacama Chile landscape",
    "notes": "Mars-like salt-and-sand desert in the world's driest place."
  },
  {
    "id": 100,
    "file": "geo_100.jpg",
    "location": "Mount Kilimanjaro",
    "country": "Tanzania",
    "lat": -3.0674,
    "lng": 37.3556,
    "difficulty": "easy",
    "region": "Africa",
    "wikimedia_search": "Kilimanjaro snow summit Tanzania",
    "notes": "Free-standing snow-capped volcano above the East African plain."
  },
  {
    "id": 101,
    "file": "geo_101.jpg",
    "location": "Victoria Falls",
    "country": "Zambia / Zimbabwe",
    "lat": -17.9243,
    "lng": 25.8572,
    "difficulty": "easy",
    "region": "Africa",
    "wikimedia_search": "Victoria Falls Zambezi Mosi-oa-Tunya",
    "notes": "Zambezi River plunges into a basalt gorge — Africa's biggest waterfall."
  },
  {
    "id": 102,
    "file": "geo_102.jpg",
    "location": "Lalibela Rock Churches",
    "country": "Ethiopia",
    "lat": 12.0317,
    "lng": 39.0411,
    "difficulty": "medium",
    "region": "Africa",
    "wikimedia_search": "Lalibela Bete Giyorgis rock-hewn church",
    "notes": "Crucifix-shaped church carved DOWN into solid rock."
  },
  {
    "id": 103,
    "file": "geo_103.jpg",
    "location": "Avenue of the Baobabs",
    "country": "Madagascar",
    "lat": -20.2526,
    "lng": 44.4181,
    "difficulty": "medium",
    "region": "Africa",
    "wikimedia_search": "Avenue of the Baobabs Madagascar Morondava",
    "notes": "Dirt road lined with massive baobab trees, sunset light common."
  },
  {
    "id": 104,
    "file": "geo_104.jpg",
    "location": "Skeleton Coast",
    "country": "Namibia",
    "lat": -20.4067,
    "lng": 13.2367,
    "difficulty": "hard",
    "region": "Africa",
    "wikimedia_search": "Skeleton Coast Namibia shipwreck Atlantic",
    "notes": "Foggy Atlantic coast with shipwrecks and dunes meeting the sea."
  },
  {
    "id": 105,
    "file": "geo_105.jpg",
    "location": "Pyramids of Meroë",
    "country": "Sudan",
    "lat": 16.9385,
    "lng": 33.7491,
    "difficulty": "hard",
    "region": "Africa",
    "wikimedia_search": "Meroe Nubian pyramids Sudan desert",
    "notes": "Steeper, smaller Nubian pyramids — Sudan, not Egypt."
  },
  {
    "id": 106,
    "file": "geo_106.jpg",
    "location": "Uluru / Ayers Rock",
    "country": "Australia",
    "lat": -25.3444,
    "lng": 131.0369,
    "difficulty": "easy",
    "region": "Oceania",
    "wikimedia_search": "Uluru Ayers Rock Northern Territory Australia",
    "notes": "Massive red sandstone monolith in the Australian outback."
  },
  {
    "id": 107,
    "file": "geo_107.jpg",
    "location": "Twelve Apostles, Great Ocean Road",
    "country": "Australia",
    "lat": -38.6633,
    "lng": 143.1042,
    "difficulty": "medium",
    "region": "Oceania",
    "wikimedia_search": "Twelve Apostles Great Ocean Road limestone stacks",
    "notes": "Limestone sea stacks on a wild southern coastline."
  },
  {
    "id": 108,
    "file": "geo_108.jpg",
    "location": "Milford Sound",
    "country": "New Zealand",
    "lat": -44.6712,
    "lng": 167.9278,
    "difficulty": "medium",
    "region": "Oceania",
    "wikimedia_search": "Milford Sound Mitre Peak Fiordland",
    "notes": "Sheer-cliffed fjord with Mitre Peak rising from black water."
  },
  {
    "id": 109,
    "file": "geo_109.jpg",
    "location": "Bora Bora overwater bungalows",
    "country": "French Polynesia",
    "lat": -16.5004,
    "lng": -151.7415,
    "difficulty": "medium",
    "region": "Oceania",
    "wikimedia_search": "Bora Bora overwater bungalow turquoise lagoon",
    "notes": "Mt Otemanu in distance, lagoon with stilted bungalows."
  },
  {
    "id": 110,
    "file": "geo_110.jpg",
    "location": "Burj Al Arab, Dubai",
    "country": "UAE",
    "lat": 25.1413,
    "lng": 55.1853,
    "difficulty": "easy",
    "region": "Middle East",
    "wikimedia_search": "Burj Al Arab Dubai sail hotel",
    "notes": "Sail-shaped luxury hotel on its own artificial island."
  },
  {
    "id": 111,
    "file": "geo_111.jpg",
    "location": "Dome of the Rock, Jerusalem",
    "country": "Israel",
    "lat": 31.778,
    "lng": 35.2354,
    "difficulty": "easy",
    "region": "Middle East",
    "wikimedia_search": "Dome of the Rock Jerusalem golden",
    "notes": "Gold dome on octagonal blue-tile base — Temple Mount."
  },
  {
    "id": 112,
    "file": "geo_112.jpg",
    "location": "Persepolis ruins",
    "country": "Iran",
    "lat": 29.9358,
    "lng": 52.8916,
    "difficulty": "medium",
    "region": "Middle East",
    "wikimedia_search": "Persepolis Iran ruins columns ancient",
    "notes": "Stone columns and reliefs of the Achaemenid capital."
  },
  {
    "id": 113,
    "file": "geo_113.jpg",
    "location": "Hegra (Mada'in Saleh)",
    "country": "Saudi Arabia",
    "lat": 26.7917,
    "lng": 37.9536,
    "difficulty": "hard",
    "region": "Middle East",
    "wikimedia_search": "Hegra Madain Saleh Saudi Arabia Nabatean",
    "notes": "Nabataean rock-cut tombs — 'sister of Petra' but in the Saudi desert."
  },
  {
    "id": 114,
    "file": "geo_114.jpg",
    "location": "Liwa Oasis dunes",
    "country": "UAE",
    "lat": 23.1314,
    "lng": 53.7847,
    "difficulty": "hard",
    "region": "Middle East",
    "wikimedia_search": "Liwa Oasis Empty Quarter dunes UAE",
    "notes": "Massive star-shaped dunes at the edge of the Empty Quarter."
  },
  {
    "id": 116,
    "file": "geo_116.jpg",
    "location": "Ilulissat Icefjord",
    "country": "Greenland",
    "lat": 69.2167,
    "lng": -51.0833,
    "difficulty": "hard",
    "region": "Polar / Remote",
    "wikimedia_search": "Ilulissat icefjord Greenland glacier icebergs",
    "notes": "Calving glacier producing tabular icebergs in a deep fjord."
  },
  {
    "id": 117,
    "file": "geo_117.jpg",
    "location": "Nuuk colorful waterfront",
    "country": "Greenland",
    "lat": 64.1814,
    "lng": -51.6941,
    "difficulty": "hard",
    "region": "Polar / Remote",
    "wikimedia_search": "Nuuk Greenland colorful houses harbor",
    "notes": "Brightly painted houses along a North Atlantic harbor."
  },
  {
    "id": 118,
    "file": "geo_118.jpg",
    "location": "Banaue Rice Terraces",
    "country": "Philippines",
    "lat": 16.93,
    "lng": 121.0567,
    "difficulty": "medium",
    "region": "Asia",
    "wikimedia_search": "Banaue Ifugao rice terraces Philippines",
    "notes": "Steep-stepped 2,000-year-old rice terraces carved into mountainsides."
  },
  {
    "id": 119,
    "file": "geo_119.jpg",
    "location": "Salt Cathedral of Zipaquirá",
    "country": "Colombia",
    "lat": 5.0177,
    "lng": -73.9697,
    "difficulty": "hard",
    "region": "South America",
    "wikimedia_search": "Zipaquira salt cathedral Colombia",
    "notes": "Underground cathedral carved inside a working salt mine."
  },
  {
    "id": 120,
    "file": "geo_120.jpg",
    "location": "Plain of Jars",
    "country": "Laos",
    "lat": 19.4319,
    "lng": 103.1497,
    "difficulty": "hard",
    "region": "Asia",
    "wikimedia_search": "Plain of Jars Phonsavan Laos megalithic",
    "notes": "Iron-age stone jars scattered across a high plain."
  }
]
